[
	{
		"id": "amsterdam",
		"name": "Amsterdam",
		"country": "NL",
		"timezone": "Europe/Amsterdam",
		"label": "CET/CEST",
		"coordinates": {
			"lat": 52.3676,
			"lng": 4.9041
		}
	},
	{
		"id": "rotterdam",
		"name": "Rotterdam",
		"country": "NL",
		"timezone": "Europe/Amsterdam",
		"label": "CET/CEST",
		"coordinates": {
			"lat": 51.9244,
			"lng": 4.4777
		}
	},
	{
		"id": "the-hague",
		"name": "The Hague",
		"country": "NL",
		"timezone": "Europe/Amsterdam",
		"label": "CET/CEST",
		"coordinates": {
			"lat": 52.0705,
			"lng": 4.3007
		}
	},
	{
		"id": "utrecht",
		"name": "Utrecht",
		"country": "NL",
		"timezone": "Europe/Amsterdam",
		"label": "CET/CEST",
		"coordinates": {
			"lat": 52.0907,
			"lng": 5.1214
		}
	},
	{
		"id": "eindhoven",
		"name": "Eindhoven",
		"country": "NL",
		"timezone": "Europe/Amsterdam",
		"label": "CET/CEST",
		"coordinates": {
			"lat": 51.4416,
			"lng": 5.4697
		}
	},
	{
		"id": "groningen",
		"name": "Groningen",
		"country": "NL",
		"timezone": "Europe/Amsterdam",
		"label": "CET/CEST",
		"coordinates": {
			"lat": 53.2194,
			"lng": 6.5665
		}
	},
	{
		"id": "tilburg",
		"name": "Tilburg",
		"country": "NL",
		"timezone": "Europe/Amsterdam",
		"label": "CET/CEST",
		"coordinates": {
			"lat": 51.5653,
			"lng": 5.0913
		}
	},
	{
		"id": "almere",
		"name": "Almere",
		"country": "NL",
		"timezone": "Europe/Amsterdam",
		"label": "CET/CEST",
		"coordinates": {
			"lat": 52.3508,
			"lng": 5.2647
		}
	}
]